{
  "type": "FeatureCollection",
  "metadata": {
    "name": "Services & Restaurants - Îles Féroé",
    "version": "1.1",
    "date": "2025-01-10",
    "author": "Philippe",
    "description": "Magasins, services et restaurants aux îles Féroé"
  },
  "features": [
    {"type":"Feature","geometry":{"type":"Point","coordinates":[-6.7714,62.0107]},"properties":{"name":"Bónus - SMS","category":"Alimentation","subcategory":"Supermarché","chain":"Bónus","island":"Streymoy","village":"Tórshavn","address":"SMS Shopping Center","phone":"","website":"bonus.fo","hours":"Lun-Sam 9h-22h","price_level":"€","description":"Supermarché discount, logo cochon jaune"}},
    {"type":"Feature","geometry":{"type":"Point","coordinates":[-6.7540,62.0180]},"properties":{"name":"Bónus - Hoyvík","category":"Alimentation","subcategory":"Supermarché","chain":"Bónus","island":"Streymoy","village":"Hoyvík","address":"Hoyvíksvegur","phone":"","website":"bonus.fo","hours":"Lun-Sam 9h-22h","price_level":"€","description":"Supermarché discount"}},
    {"type":"Feature","geometry":{"type":"Point","coordinates":[-6.5890,62.2270]},"properties":{"name":"Bónus - Klaksvík","category":"Alimentation","subcategory":"Supermarché","chain":"Bónus","island":"Borðoy","village":"Klaksvík","address":"","phone":"","website":"bonus.fo","hours":"Lun-Sam 9h-22h","price_level":"€","description":"Supermarché discount"}},
    {"type":"Feature","geometry":{"type":"Point","coordinates":[-6.7200,62.1100]},"properties":{"name":"Bónus - Saltangará","category":"Alimentation","subcategory":"Supermarché","chain":"Bónus","island":"Eysturoy","village":"Saltangará","address":"","phone":"","website":"bonus.fo","hours":"Lun-Sam 9h-22h","price_level":"€","description":"Supermarché discount"}},
    {"type":"Feature","geometry":{"type":"Point","coordinates":[-7.1920,62.0520]},"properties":{"name":"Bónus - Miðvágur","category":"Alimentation","subcategory":"Supermarché","chain":"Bónus","island":"Vágar","village":"Miðvágur","address":"","phone":"","website":"bonus.fo","hours":"Lun-Sam 9h-22h","price_level":"€","description":"Supermarché discount"}},
    {"type":"Feature","geometry":{"type":"Point","coordinates":[-6.8120,61.5560]},"properties":{"name":"Bónus - Tvøroyri","category":"Alimentation","subcategory":"Supermarché","chain":"Bónus","island":"Suðuroy","village":"Tvøroyri","address":"Havnarlagið 54","phone":"","website":"bonus.fo","hours":"Lun-Sam 9h-22h","price_level":"€","description":"Supermarché discount"}},
    {"type":"Feature","geometry":{"type":"Point","coordinates":[-6.8050,61.4740]},"properties":{"name":"Bónus - Vágur","category":"Alimentation","subcategory":"Supermarché","chain":"Bónus","island":"Suðuroy","village":"Vágur","address":"","phone":"","website":"bonus.fo","hours":"","price_level":"€","description":"Supermarché discount"}},
    {"type":"Feature","geometry":{"type":"Point","coordinates":[-6.7680,62.0130]},"properties":{"name":"FK - Tórshavn Centre","category":"Alimentation","subcategory":"Supermarché","chain":"FK","island":"Streymoy","village":"Tórshavn","address":"Centre-ville","phone":"+298 660000","website":"fk.fo","hours":"Lun-Sam 7h15-22h","price_level":"€€","description":"Coopérative, large choix, café/boulangerie"}},
    {"type":"Feature","geometry":{"type":"Point","coordinates":[-6.7540,62.0180]},"properties":{"name":"FK - Hoyvík","category":"Alimentation","subcategory":"Supermarché","chain":"FK","island":"Streymoy","village":"Hoyvík","address":"Brekkutúni 9","phone":"+298 660000","website":"fk.fo","hours":"Lun-Sam 7h15-22h","price_level":"€€","description":"Coopérative, grand magasin"}},
    {"type":"Feature","geometry":{"type":"Point","coordinates":[-6.5890,62.2270]},"properties":{"name":"FK - Klaksvík","category":"Alimentation","subcategory":"Supermarché","chain":"FK","island":"Borðoy","village":"Klaksvík","address":"","phone":"+298 660000","website":"fk.fo","hours":"8h-22h","price_level":"€€","description":"Coopérative, boulangerie, produits locaux"}},
    {"type":"Feature","geometry":{"type":"Point","coordinates":[-7.1920,62.0520]},"properties":{"name":"FK - Miðvágur","category":"Alimentation","subcategory":"Supermarché","chain":"FK","island":"Vágar","village":"Miðvágur","address":"Skaldavegur 2","phone":"+298 660060","website":"fk.fo","hours":"Lun-Sam 7h15-22h","price_level":"€€","description":"Coopérative, café intégré"}},
    {"type":"Feature","geometry":{"type":"Point","coordinates":[-7.1450,62.0580]},"properties":{"name":"FK - Sandavágur","category":"Alimentation","subcategory":"Supermarché","chain":"FK","island":"Vágar","village":"Sandavágur","address":"Á Sondum 16","phone":"+298 660060","website":"fk.fo","hours":"Lun-Sam 7h15-22h","price_level":"€€","description":"Coopérative"}},
    {"type":"Feature","geometry":{"type":"Point","coordinates":[-6.8100,62.2400]},"properties":{"name":"FK - Fuglafjørður","category":"Alimentation","subcategory":"Supermarché","chain":"FK","island":"Eysturoy","village":"Fuglafjørður","address":"","phone":"+298 660000","website":"fk.fo","hours":"Lun-Sam 7h15-22h","price_level":"€€","description":"Coopérative"}},
    {"type":"Feature","geometry":{"type":"Point","coordinates":[-6.8400,61.5880]},"properties":{"name":"FK - Trongisvágur","category":"Alimentation","subcategory":"Supermarché","chain":"FK","island":"Suðuroy","village":"Trongisvágur","address":"Traðarvegur 165","phone":"","website":"fk.fo","hours":"Lun-Ven 9h-20h, Sam 9h-18h","price_level":"€€","description":"Coopérative"}},
    {"type":"Feature","geometry":{"type":"Point","coordinates":[-6.7714,62.0107]},"properties":{"name":"Miklagarður (SMS)","category":"Alimentation","subcategory":"Supermarché","chain":"Miklagarður","island":"Streymoy","village":"Tórshavn","address":"SMS Shopping Center","phone":"","website":"","hours":"","price_level":"€€","description":"Grand supermarché dans le centre commercial SMS"}},
    {"type":"Feature","geometry":{"type":"Point","coordinates":[-6.7680,62.0130]},"properties":{"name":"Á Landavegur","category":"Alimentation","subcategory":"Supermarché","chain":"","island":"Streymoy","village":"Tórshavn","address":"Landavegur","phone":"","website":"","hours":"7h-22h","price_level":"€€","description":"Ouvert tôt et tard, pratique"}},
    {"type":"Feature","geometry":{"type":"Point","coordinates":[-6.8700,61.9100]},"properties":{"name":"Á - Skopun","category":"Alimentation","subcategory":"Épicerie","chain":"Á","island":"Sandoy","village":"Skopun","address":"Tormansvegur 26","phone":"+298 361320","website":"","hours":"Lun-Ven 9h-19h, Sam 10h-19h, Dim 16h-19h","price_level":"€€","description":"Épicerie + vêtements enfants, chaussures, jouets"}},
    {"type":"Feature","geometry":{"type":"Point","coordinates":[-6.9200,61.8400]},"properties":{"name":"Eldhús - Sandur","category":"Alimentation","subcategory":"Épicerie","chain":"","island":"Sandoy","village":"Sandur","address":"Heimansandsvegur 52","phone":"+298 361002","website":"","hours":"","price_level":"€€","description":"Épicerie générale"}},
    {"type":"Feature","geometry":{"type":"Point","coordinates":[-6.8120,61.5560]},"properties":{"name":"Við Sílá - Tvøroyri","category":"Alimentation","subcategory":"Épicerie","chain":"","island":"Suðuroy","village":"Tvøroyri","address":"Við Sílá 12","phone":"","website":"","hours":"Tous les jours 9h-22h","price_level":"€€","description":"Épicerie générale"}},
    {"type":"Feature","geometry":{"type":"Point","coordinates":[-6.9500,61.6020]},"properties":{"name":"Við Bakkhús - Hvalba","category":"Alimentation","subcategory":"Épicerie","chain":"","island":"Suðuroy","village":"Hvalba","address":"Skálavegur 6","phone":"+298 375436","website":"","hours":"Lun-Sam 8h30-22h, Dim 9h-11h","price_level":"€€","description":"Épicerie générale"}},
    {"type":"Feature","geometry":{"type":"Point","coordinates":[-6.8050,61.4740]},"properties":{"name":"Épicerie Vágur","category":"Alimentation","subcategory":"Épicerie","chain":"","island":"Suðuroy","village":"Vágur","address":"Vágsvegur 62","phone":"","website":"","hours":"Lun-Sam 7h-22h, Dim 15h-22h","price_level":"€€","description":"Supermarché"}},
    {"type":"Feature","geometry":{"type":"Point","coordinates":[-6.8050,61.4740]},"properties":{"name":"Suðuroyar Heimavirki - Vágur","category":"Alimentation","subcategory":"Épicerie","chain":"","island":"Suðuroy","village":"Vágur","address":"Vágsvegur 47","phone":"+298 373960","website":"","hours":"","price_level":"€€","description":"Épicerie locale"}},
    {"type":"Feature","geometry":{"type":"Point","coordinates":[-6.8200,61.4650]},"properties":{"name":"Zacharias Müller - Porkeri","category":"Alimentation","subcategory":"Épicerie","chain":"","island":"Suðuroy","village":"Porkeri","address":"Klovavegur 19","phone":"+298 373179","website":"","hours":"","price_level":"€€","description":"Épicerie locale"}},
    {"type":"Feature","geometry":{"type":"Point","coordinates":[-6.6650,62.0980]},"properties":{"name":"Matvørubúðin - Nólsoy","category":"Alimentation","subcategory":"Épicerie","chain":"","island":"Nólsoy","village":"Nólsoy","address":"Á Mýrini 2","phone":"+298 327150","website":"","hours":"","price_level":"€€","description":"Seule épicerie de l'île de Nólsoy"}},
    {"type":"Feature","geometry":{"type":"Point","coordinates":[-6.9100,61.7700]},"properties":{"name":"Meinhard Hentze - Skúvoy","category":"Alimentation","subcategory":"Épicerie","chain":"","island":"Skúvoy","village":"Skúvoy","address":"Handskavegur 16","phone":"+298 361436","website":"","hours":"","price_level":"€€","description":"Seule épicerie de l'île de Skúvoy"}},
    {"type":"Feature","geometry":{"type":"Point","coordinates":[-6.9100,62.1100]},"properties":{"name":"CAJ sp/f - Kollafjørður","category":"Alimentation","subcategory":"Épicerie","chain":"","island":"Streymoy","village":"Kollafjørður","address":"Við Sjógv 68","phone":"+298 669000","website":"","hours":"","price_level":"€€","description":"Épicerie locale"}},
    {"type":"Feature","geometry":{"type":"Point","coordinates":[-7.0700,62.1560]},"properties":{"name":"Magnstøðin - Vestmanna","category":"Alimentation","subcategory":"Épicerie","chain":"Magn","island":"Streymoy","village":"Vestmanna","address":"Niðari Vegur 81","phone":"+298 424453","website":"","hours":"","price_level":"€€","description":"Station-service avec épicerie"}},
    {"type":"Feature","geometry":{"type":"Point","coordinates":[-7.3060,62.0720]},"properties":{"name":"PE Sørvágur","category":"Alimentation","subcategory":"Épicerie","chain":"","island":"Vágar","village":"Sørvágur","address":"Í Bygdini 3","phone":"+298 564085","website":"","hours":"","price_level":"€€","description":"Épicerie locale près de l'aéroport"}},
    {"type":"Feature","geometry":{"type":"Point","coordinates":[-6.8600,62.0850]},"properties":{"name":"PE Norðagøta","category":"Alimentation","subcategory":"Épicerie","chain":"","island":"Eysturoy","village":"Norðagøta","address":"Við Ánna 12","phone":"+298 564084","website":"","hours":"","price_level":"€€","description":"Épicerie locale"}},
    {"type":"Feature","geometry":{"type":"Point","coordinates":[-6.7600,62.1400]},"properties":{"name":"Strandacentrum - Strendur","category":"Alimentation","subcategory":"Épicerie","chain":"","island":"Eysturoy","village":"Strendur","address":"Heygsvegur 4","phone":"+298 449139","website":"","hours":"","price_level":"€€","description":"Centre commercial local"}},
    {"type":"Feature","geometry":{"type":"Point","coordinates":[-6.8900,62.1150]},"properties":{"name":"Skálin sp/f - Skála","category":"Alimentation","subcategory":"Épicerie","chain":"","island":"Eysturoy","village":"Skála","address":"Skálavegur 213","phone":"+298 741412","website":"","hours":"","price_level":"€€","description":"Épicerie locale"}},
    {"type":"Feature","geometry":{"type":"Point","coordinates":[-6.8700,62.2700]},"properties":{"name":"Eivind Petersen - Oyndarfjørður","category":"Alimentation","subcategory":"Épicerie","chain":"","island":"Eysturoy","village":"Oyndarfjørður","address":"Ovarivegur 2","phone":"+298 264259","website":"","hours":"","price_level":"€€","description":"Épicerie locale, village isolé"}},
    {"type":"Feature","geometry":{"type":"Point","coordinates":[-6.8100,62.2400]},"properties":{"name":"Haraldsen - Fuglafjørður","category":"Alimentation","subcategory":"Épicerie","chain":"","island":"Eysturoy","village":"Fuglafjørður","address":"Karvatoftir 2","phone":"+298 444005","website":"","hours":"","price_level":"€€","description":"Épicerie locale"}},
    {"type":"Feature","geometry":{"type":"Point","coordinates":[-6.9350,62.0680]},"properties":{"name":"Magn við Streymin - Oyrabakki","category":"Alimentation","subcategory":"Épicerie","chain":"Magn","island":"Streymoy","village":"Oyrabakki","address":"Oyrabakkavegur 1","phone":"+298 422255","website":"","hours":"","price_level":"€€","description":"Station-service avec épicerie, pont vers Eysturoy"}},
    {"type":"Feature","geometry":{"type":"Point","coordinates":[-6.7540,62.0180]},"properties":{"name":"Rúsan - Hoyvík","category":"Alcool","subcategory":"Monopole d'État","chain":"Rúsan","island":"Streymoy","village":"Hoyvík","address":"Hoyvíksvegur 67 (Miðlon)","phone":"+298 340404","website":"rusan.fo","hours":"Lun-Ven 10h-17h30, Sam 10h-14h","price_level":"€€€","description":"Monopole d'alcool national, vins, spiritueux, bières locales"}},
    {"type":"Feature","geometry":{"type":"Point","coordinates":[-6.7680,62.0130]},"properties":{"name":"Rúsan - Tórshavn","category":"Alcool","subcategory":"Monopole d'État","chain":"Rúsan","island":"Streymoy","village":"Tórshavn","address":"","phone":"+298 340404","website":"rusan.fo","hours":"Lun-Ven 10h-17h30, Sam 10h-14h","price_level":"€€€","description":"Monopole d'alcool national"}},
    {"type":"Feature","geometry":{"type":"Point","coordinates":[-6.5890,62.2270]},"properties":{"name":"Rúsan - Klaksvík","category":"Alcool","subcategory":"Monopole d'État","chain":"Rúsan","island":"Borðoy","village":"Klaksvík","address":"","phone":"+298 340404","website":"rusan.fo","hours":"Lun-Ven 10h-17h30, Sam 10h-14h","price_level":"€€€","description":"Monopole d'alcool, bières féroïennes"}},
    {"type":"Feature","geometry":{"type":"Point","coordinates":[-6.7200,62.1100]},"properties":{"name":"Rúsan - Saltangará","category":"Alcool","subcategory":"Monopole d'État","chain":"Rúsan","island":"Eysturoy","village":"Saltangará","address":"","phone":"+298 340404","website":"rusan.fo","hours":"Lun-Ven 10h-17h30, Sam 10h-14h","price_level":"€€€","description":"Monopole d'alcool national"}},
    {"type":"Feature","geometry":{"type":"Point","coordinates":[-7.1920,62.0520]},"properties":{"name":"Rúsan - Miðvágur","category":"Alcool","subcategory":"Monopole d'État","chain":"Rúsan","island":"Vágar","village":"Miðvágur","address":"Skaldarvegur 5","phone":"+298 340404","website":"rusan.fo","hours":"Lun-Ven 10h-17h30, Sam 10h-14h","price_level":"€€€","description":"Près du FK, monopole d'alcool"}},
    {"type":"Feature","geometry":{"type":"Point","coordinates":[-6.9200,61.8400]},"properties":{"name":"Rúsan - Sandur","category":"Alcool","subcategory":"Monopole d'État","chain":"Rúsan","island":"Sandoy","village":"Sandur","address":"","phone":"+298 340404","website":"rusan.fo","hours":"Lun-Ven 10h-17h30, Sam 10h-14h","price_level":"€€€","description":"Monopole d'alcool national"}},
    {"type":"Feature","geometry":{"type":"Point","coordinates":[-6.8400,61.5880]},"properties":{"name":"Rúsan - Trongisvágur","category":"Alcool","subcategory":"Monopole d'État","chain":"Rúsan","island":"Suðuroy","village":"Trongisvágur","address":"","phone":"+298 340404","website":"rusan.fo","hours":"Lun-Ven 10h-17h30, Sam 10h-14h","price_level":"€€€","description":"Monopole d'alcool national"}},
    {"type":"Feature","geometry":{"type":"Point","coordinates":[-6.7760,62.0102]},"properties":{"name":"OY Taproom","category":"Bar","subcategory":"Brasserie","chain":"","island":"Streymoy","village":"Tórshavn","address":"","phone":"","website":"","hours":"","price_level":"€€","description":"Brasserie locale, bières craft féroïennes, ambiance conviviale"}},
    {"type":"Feature","geometry":{"type":"Point","coordinates":[-6.7718,62.0076]},"properties":{"name":"Mikkeller","category":"Bar","subcategory":"Bar à bières","chain":"Mikkeller","island":"Streymoy","village":"Tórshavn","address":"Vieux Tórshavn, maison de 500 ans","phone":"","website":"","hours":"","price_level":"€€€","description":"Bières craft internationales et locales"}},
    {"type":"Feature","geometry":{"type":"Point","coordinates":[-6.7720,62.0078]},"properties":{"name":"Panamé Café","category":"Café","subcategory":"Café","chain":"","island":"Streymoy","village":"Tórshavn","address":"Vaglið","phone":"","website":"","hours":"","price_level":"€€","description":"Maison rouge toit d'herbe, pâtisseries maison, croissants"}},
    {"type":"Feature","geometry":{"type":"Point","coordinates":[-6.7728,62.0085]},"properties":{"name":"Kaffihúsið","category":"Café","subcategory":"Café","chain":"","island":"Streymoy","village":"Tórshavn","address":"","phone":"","website":"","hours":"","price_level":"€€","description":"Café, souvenirs"}},
    {"type":"Feature","geometry":{"type":"Point","coordinates":[-6.7735,62.0090]},"properties":{"name":"Gómagott","category":"Café","subcategory":"Café","chain":"","island":"Streymoy","village":"Tórshavn","address":"","phone":"","website":"","hours":"","price_level":"€€","description":"Café"}},
    {"type":"Feature","geometry":{"type":"Point","coordinates":[-6.7740,62.0092]},"properties":{"name":"Kafé Umami","category":"Café","subcategory":"Café","chain":"","island":"Streymoy","village":"Tórshavn","address":"","phone":"","website":"","hours":"","price_level":"€€","description":"Café"}},
    {"type":"Feature","geometry":{"type":"Point","coordinates":[-6.7745,62.0095]},"properties":{"name":"Kafé Kaspar","category":"Café","subcategory":"Café","chain":"","island":"Streymoy","village":"Tórshavn","address":"","phone":"","website":"","hours":"","price_level":"€€","description":"Café"}},
    {"type":"Feature","geometry":{"type":"Point","coordinates":[-6.7750,62.0098]},"properties":{"name":"Systrar","category":"Café","subcategory":"Café bio","chain":"","island":"Streymoy","village":"Tórshavn","address":"","phone":"","website":"","hours":"","price_level":"€€","description":"Café bio/organique"}},
    {"type":"Feature","geometry":{"type":"Point","coordinates":[-6.7722,62.0080]},"properties":{"name":"Ástaklokkan","category":"Café","subcategory":"Café","chain":"","island":"Streymoy","village":"Tórshavn","address":"Vieux Tórshavn","phone":"","website":"","hours":"","price_level":"€€","description":"Love Clock Café, cuisine féroïenne/européenne"}},
    {"type":"Feature","geometry":{"type":"Point","coordinates":[-6.7732,62.0088]},"properties":{"name":"Brell","category":"Café","subcategory":"Café","chain":"","island":"Streymoy","village":"Tórshavn","address":"","phone":"","website":"","hours":"","price_level":"€€","description":"Café"}},
    {"type":"Feature","geometry":{"type":"Point","coordinates":[-6.7755,62.0100]},"properties":{"name":"No 12","category":"Café","subcategory":"Bar à jus","chain":"","island":"Streymoy","village":"Tórshavn","address":"","phone":"","website":"","hours":"","price_level":"€€","description":"Unique bar à jus des Féroé"}},
    {"type":"Feature","geometry":{"type":"Point","coordinates":[-6.5890,62.2270]},"properties":{"name":"Café Fríða","category":"Café","subcategory":"Café","chain":"","island":"Borðoy","village":"Klaksvík","address":"","phone":"","website":"","hours":"","price_level":"€€","description":"Café cosy"}},
    {"type":"Feature","geometry":{"type":"Point","coordinates":[-6.7200,62.1100]},"properties":{"name":"Café Cibo","category":"Café","subcategory":"Café","chain":"","island":"Eysturoy","village":"Saltangará","address":"","phone":"","website":"","hours":"","price_level":"€€","description":"Café"}},
    {"type":"Feature","geometry":{"type":"Point","coordinates":[-6.8120,61.5560]},"properties":{"name":"Kafé Mormor","category":"Café","subcategory":"Café","chain":"","island":"Suðuroy","village":"Tvøroyri","address":"","phone":"","website":"","hours":"","price_level":"€€","description":"Café"}},
    {"type":"Feature","geometry":{"type":"Point","coordinates":[-6.7730,62.0100]},"properties":{"name":"Útirok","category":"Commerce","subcategory":"Outdoor / Sport","chain":"","island":"Streymoy","village":"Tórshavn","address":"Doktara Jakobsens gøta 15","phone":"","website":"","hours":"Lun-Jeu 10h-17h30, Ven 10h-15h","price_level":"€€€","description":"Équipement outdoor complet: randonnée, kayak, ski, plongée"}},
    {"type":"Feature","geometry":{"type":"Point","coordinates":[-6.7750,62.0085]},"properties":{"name":"Jógvan Weihe","category":"Commerce","subcategory":"Outdoor / Sport","chain":"","island":"Streymoy","village":"Tórshavn","address":"Stiðjagøta 10","phone":"+298 353897","website":"weihe.fo","hours":"Lun-Ven 8h-17h30, Sam 9h-14h","price_level":"€€","description":"Outdoor, nautique, pêche, camping - référence locale"}},
    {"type":"Feature","geometry":{"type":"Point","coordinates":[-6.7720,62.0095]},"properties":{"name":"Valdemar Lützen","category":"Commerce","subcategory":"Outils / Quincaillerie","chain":"","island":"Streymoy","village":"Tórshavn","address":"Skálatrøð 14","phone":"+298 301020","website":"vlb.fo","hours":"Lun-Ven 9h-17h, Sam 9h-14h","price_level":"€€","description":"Outils, machines, équipement industriel, pêche"}},
    {"type":"Feature","geometry":{"type":"Point","coordinates":[-6.7714,62.0107]},"properties":{"name":"Intersport","category":"Commerce","subcategory":"Outdoor / Sport","chain":"Intersport","island":"Streymoy","village":"Tórshavn","address":"SMS / Centre-ville","phone":"","website":"","hours":"","price_level":"€€","description":"Équipement sportif"}},
    {"type":"Feature","geometry":{"type":"Point","coordinates":[-6.7680,62.0130]},"properties":{"name":"Bátatænastan","category":"Commerce","subcategory":"Équipement nautique","chain":"","island":"Streymoy","village":"Tórshavn","address":"Rundingur 20","phone":"+298 311735","website":"","hours":"","price_level":"€€","description":"Équipement nautique et bateau"}},
    {"type":"Feature","geometry":{"type":"Point","coordinates":[-7.3060,62.0720]},"properties":{"name":"Handilsvirkið Niclasen","category":"Commerce","subcategory":"Outdoor / Sport","chain":"","island":"Vágar","village":"Sørvágur","address":"Bakkavegur 24","phone":"+298 332001","website":"","hours":"","price_level":"€€","description":"Outdoor, équipement de pêche"}},
    {"type":"Feature","geometry":{"type":"Point","coordinates":[-6.7735,62.0088]},"properties":{"name":"Guðrun & Guðrun","category":"Commerce","subcategory":"Vêtements / Laine","chain":"","island":"Streymoy","village":"Tórshavn","address":"Rue principale centre-ville","phone":"","website":"gudrungudrun.com","hours":"","price_level":"€€€","description":"Tricots féroïens haut de gamme, Star jumper célèbre"}},
    {"type":"Feature","geometry":{"type":"Point","coordinates":[-6.7740,62.0092]},"properties":{"name":"Navia","category":"Commerce","subcategory":"Vêtements / Laine","chain":"","island":"Streymoy","village":"Tórshavn","address":"","phone":"","website":"navia.fo","hours":"","price_level":"€€€","description":"Laine féroïenne, pulls 3D, tricots durables"}},
    {"type":"Feature","geometry":{"type":"Point","coordinates":[-6.7738,62.0090]},"properties":{"name":"Sirri","category":"Commerce","subcategory":"Vêtements / Laine","chain":"","island":"Streymoy","village":"Tórshavn","address":"","phone":"","website":"","hours":"","price_level":"€€€","description":"Créations traditionnelles en laine féroïenne"}},
    {"type":"Feature","geometry":{"type":"Point","coordinates":[-6.7742,62.0094]},"properties":{"name":"Marjun Heima","category":"Commerce","subcategory":"Artisanat","chain":"","island":"Streymoy","village":"Tórshavn","address":"","phone":"","website":"","hours":"","price_level":"€€","description":"Artisanat traditionnel féroïen"}},
    {"type":"Feature","geometry":{"type":"Point","coordinates":[-6.7745,62.0095]},"properties":{"name":"Østrøm","category":"Commerce","subcategory":"Design / Souvenirs","chain":"","island":"Streymoy","village":"Tórshavn","address":"","phone":"","website":"","hours":"","price_level":"€€","description":"Design féroïen, produits locaux"}},
    {"type":"Feature","geometry":{"type":"Point","coordinates":[-6.7748,62.0097]},"properties":{"name":"Einfalt Steinprent","category":"Commerce","subcategory":"Art / Galerie","chain":"","island":"Streymoy","village":"Tórshavn","address":"","phone":"","website":"","hours":"","price_level":"€€","description":"Art visuel féroïen, galerie"}},
    {"type":"Feature","geometry":{"type":"Point","coordinates":[-6.7750,62.0098]},"properties":{"name":"Leirlist","category":"Commerce","subcategory":"Artisanat","chain":"","island":"Streymoy","village":"Tórshavn","address":"","phone":"","website":"","hours":"","price_level":"€€","description":"Céramiques féroïennes artisanales"}},
    {"type":"Feature","geometry":{"type":"Point","coordinates":[-6.7752,62.0099]},"properties":{"name":"Rabarbuglas","category":"Commerce","subcategory":"Verrerie","chain":"","island":"Streymoy","village":"Tórshavn","address":"","phone":"","website":"","hours":"","price_level":"€€","description":"Verrerie artisanale féroïenne"}},
    {"type":"Feature","geometry":{"type":"Point","coordinates":[-6.7754,62.0100]},"properties":{"name":"Mikkalina Glas","category":"Commerce","subcategory":"Verrerie","chain":"","island":"Streymoy","village":"Tórshavn","address":"","phone":"","website":"","hours":"","price_level":"€€","description":"Verrerie artisanale"}},
    {"type":"Feature","geometry":{"type":"Point","coordinates":[-6.7756,62.0101]},"properties":{"name":"Glarsmiðjan","category":"Commerce","subcategory":"Verrerie","chain":"","island":"Streymoy","village":"Tórshavn","address":"","phone":"","website":"","hours":"","price_level":"€€","description":"Atelier de verre"}},
    {"type":"Feature","geometry":{"type":"Point","coordinates":[-6.7755,62.0100]},"properties":{"name":"Tutl","category":"Commerce","subcategory":"Musique","chain":"","island":"Streymoy","village":"Tórshavn","address":"","phone":"","website":"","hours":"","price_level":"€€","description":"Musique féroïenne, disques, souvenirs musicaux"}},
    {"type":"Feature","geometry":{"type":"Point","coordinates":[-6.7760,62.0102]},"properties":{"name":"H.N. Jacobsens Bókahandil","category":"Commerce","subcategory":"Librairie","chain":"","island":"Streymoy","village":"Tórshavn","address":"Rue principale","phone":"","website":"","hours":"","price_level":"€€","description":"Plus ancienne librairie des Féroé"}},
    {"type":"Feature","geometry":{"type":"Point","coordinates":[-6.7758,62.0101]},"properties":{"name":"Niels L. Arge","category":"Commerce","subcategory":"Bijouterie / Horlogerie","chain":"","island":"Streymoy","village":"Tórshavn","address":"","phone":"","website":"","hours":"","price_level":"€€€","description":"Horlogerie et bijouterie depuis 1932"}},
    {"type":"Feature","geometry":{"type":"Point","coordinates":[-6.7759,62.0102]},"properties":{"name":"Nomi Smykkur & Ur","category":"Commerce","subcategory":"Bijouterie","chain":"","island":"Streymoy","village":"Tórshavn","address":"","phone":"","website":"","hours":"","price_level":"€€","description":"Bijouterie depuis 2008"}},
    {"type":"Feature","geometry":{"type":"Point","coordinates":[-6.7762,62.0103]},"properties":{"name":"Tinghúsið á Hjalla","category":"Commerce","subcategory":"Seconde main","chain":"","island":"Streymoy","village":"Tórshavn","address":"","phone":"","website":"","hours":"","price_level":"€","description":"Friperie, objets donnés"}},
    {"type":"Feature","geometry":{"type":"Point","coordinates":[-6.7714,62.0107]},"properties":{"name":"Elding - Tórshavn","category":"Commerce","subcategory":"Électronique","chain":"Elding","island":"Streymoy","village":"Tórshavn","address":"SMS","phone":"+298 359000","website":"","hours":"","price_level":"€€","description":"Électronique (El-giganten/Dixons), appareils photo, électroménager"}},
    {"type":"Feature","geometry":{"type":"Point","coordinates":[-6.5890,62.2270]},"properties":{"name":"Elding - Klaksvík","category":"Commerce","subcategory":"Électronique","chain":"Elding","island":"Borðoy","village":"Klaksvík","address":"","phone":"","website":"","hours":"","price_level":"€€","description":"Électronique, gadgets, accessoires"}},
    {"type":"Feature","geometry":{"type":"Point","coordinates":[-6.7714,62.0107]},"properties":{"name":"SMS Shopping Center","category":"Commerce","subcategory":"Centre commercial","chain":"","island":"Streymoy","village":"Tórshavn","address":"","phone":"","website":"","hours":"Variable selon boutiques","price_level":"€€","description":"Plus grand centre commercial: vêtements, librairie, jouets, pharmacie, supermarché, électronique, Burger King"}},
    {"type":"Feature","geometry":{"type":"Point","coordinates":[-6.7680,62.0130]},"properties":{"name":"XL-BYG BORG","category":"Commerce","subcategory":"Bricolage","chain":"XL-BYG","island":"Streymoy","village":"Tórshavn","address":"","phone":"","website":"","hours":"","price_level":"€€","description":"Matériaux de construction, bricolage"}},
    {"type":"Feature","geometry":{"type":"Point","coordinates":[-6.7714,62.0107]},"properties":{"name":"Tjaldurs Apotek","category":"Pharmacie","subcategory":"Pharmacie principale","chain":"Apoteksverkið","island":"Streymoy","village":"Tórshavn","address":"SMS / Húsagøta 2","phone":"+298 341100","website":"apotek.fo","hours":"Lun-Ven 9h-17h30, Sam 9h-12h","price_level":"€€","description":"Pharmacie centrale des Féroé"}},
    {"type":"Feature","geometry":{"type":"Point","coordinates":[-6.7730,62.0090]},"properties":{"name":"Steinatún Apotek","category":"Pharmacie","subcategory":"Pharmacie","chain":"Apoteksverkið","island":"Streymoy","village":"Tórshavn","address":"Niels Finsens gøta 17","phone":"+298 404040","website":"apotek.fo","hours":"Lun-Ven 9h-17h30, Sam 9h-12h","price_level":"€€","description":"Pharmacie"}},
    {"type":"Feature","geometry":{"type":"Point","coordinates":[-6.7200,62.1100]},"properties":{"name":"Eysturoyar Apotek","category":"Pharmacie","subcategory":"Pharmacie","chain":"Apoteksverkið","island":"Eysturoy","village":"Runavík","address":"","phone":"+298 404040","website":"apotek.fo","hours":"","price_level":"€€","description":"Pharmacie d'Eysturoy"}},
    {"type":"Feature","geometry":{"type":"Point","coordinates":[-6.5890,62.2270]},"properties":{"name":"Norðoya Apotek","category":"Pharmacie","subcategory":"Pharmacie","chain":"Apoteksverkið","island":"Borðoy","village":"Klaksvík","address":"Klaksvíksvegur 5","phone":"+298 404040","website":"apotek.fo","hours":"Lun-Ven 9h-17h30, Sam 9h-12h","price_level":"€€","description":"Pharmacie des îles du Nord"}},
    {"type":"Feature","geometry":{"type":"Point","coordinates":[-6.8120,61.5560]},"properties":{"name":"Suðuroyar Apotek","category":"Pharmacie","subcategory":"Pharmacie","chain":"Apoteksverkið","island":"Suðuroy","village":"Tvøroyri","address":"","phone":"+298 404040","website":"apotek.fo","hours":"","price_level":"€€","description":"Pharmacie de Suðuroy"}},
    {"type":"Feature","geometry":{"type":"Point","coordinates":[-7.1920,62.0520]},"properties":{"name":"Apotek Miðvágur","category":"Pharmacie","subcategory":"Pharmacie","chain":"Apoteksverkið","island":"Vágar","village":"Miðvágur","address":"","phone":"+298 404040","website":"apotek.fo","hours":"","price_level":"€€","description":"Nouvelle pharmacie de Vágar (ouverture récente)"}},
    {"type":"Feature","geometry":{"type":"Point","coordinates":[-6.8700,61.9100]},"properties":{"name":"Handkeypssøla - Skopun (Á handilin)","category":"Point de vente pharmaceutique","subcategory":"Handkeypssøla","chain":"","island":"Sandoy","village":"Skopun","address":"Tormansvegur 26","phone":"+298 361320","website":"","hours":"","price_level":"€","description":"Médicaments sans ordonnance, sélection limitée"}},
    {"type":"Feature","geometry":{"type":"Point","coordinates":[-6.9200,61.8400]},"properties":{"name":"Handkeypssøla - Sandur (Eldhús)","category":"Point de vente pharmaceutique","subcategory":"Handkeypssøla","chain":"","island":"Sandoy","village":"Sandur","address":"Heimansandsvegur 52","phone":"+298 361002","website":"","hours":"","price_level":"€","description":"Médicaments sans ordonnance, sélection limitée"}},
    {"type":"Feature","geometry":{"type":"Point","coordinates":[-6.9100,61.7700]},"properties":{"name":"Handkeypssøla - Skúvoy","category":"Point de vente pharmaceutique","subcategory":"Handkeypssøla","chain":"","island":"Skúvoy","village":"Skúvoy","address":"Handskavegur 16","phone":"+298 361436","website":"","hours":"","price_level":"€","description":"Médicaments sans ordonnance, île isolée"}},
    {"type":"Feature","geometry":{"type":"Point","coordinates":[-6.6650,62.0980]},"properties":{"name":"Handkeypssøla - Nólsoy","category":"Point de vente pharmaceutique","subcategory":"Handkeypssøla","chain":"","island":"Nólsoy","village":"Nólsoy","address":"Á Mýrini 2","phone":"+298 327150","website":"","hours":"","price_level":"€","description":"Médicaments sans ordonnance, île proche de Tórshavn"}},
    {"type":"Feature","geometry":{"type":"Point","coordinates":[-6.9100,62.1100]},"properties":{"name":"Handkeypssøla - Kollafjørður (CAJ)","category":"Point de vente pharmaceutique","subcategory":"Handkeypssøla","chain":"","island":"Streymoy","village":"Kollafjørður","address":"Við Sjógv 68","phone":"+298 669000","website":"","hours":"","price_level":"€","description":"Médicaments sans ordonnance, sélection limitée"}},
    {"type":"Feature","geometry":{"type":"Point","coordinates":[-7.0700,62.1560]},"properties":{"name":"Handkeypssøla - Vestmanna (Magnstøðin)","category":"Point de vente pharmaceutique","subcategory":"Handkeypssøla","chain":"Magn","island":"Streymoy","village":"Vestmanna","address":"Niðari Vegur 81","phone":"+298 424453","website":"","hours":"","price_level":"€","description":"Médicaments sans ordonnance, station-service"}},
    {"type":"Feature","geometry":{"type":"Point","coordinates":[-6.9350,62.0680]},"properties":{"name":"Handkeypssøla - Oyrabakki (Magn)","category":"Point de vente pharmaceutique","subcategory":"Handkeypssøla","chain":"Magn","island":"Streymoy","village":"Oyrabakki","address":"Oyrabakkavegur 1","phone":"+298 422255","website":"","hours":"","price_level":"€","description":"Médicaments sans ordonnance, pont vers Eysturoy"}},
    {"type":"Feature","geometry":{"type":"Point","coordinates":[-7.1450,62.0580]},"properties":{"name":"Handkeypssøla - Sandavágur (FK)","category":"Point de vente pharmaceutique","subcategory":"Handkeypssøla","chain":"FK","island":"Vágar","village":"Sandavágur","address":"Á Sondum 16","phone":"+298 660060","website":"","hours":"","price_level":"€","description":"Médicaments sans ordonnance, supermarché FK"}},
    {"type":"Feature","geometry":{"type":"Point","coordinates":[-7.1920,62.0520]},"properties":{"name":"Handkeypssøla - Miðvágur (FK)","category":"Point de vente pharmaceutique","subcategory":"Handkeypssøla","chain":"FK","island":"Vágar","village":"Miðvágur","address":"Skaldavegur 2","phone":"+298 660060","website":"","hours":"","price_level":"€","description":"Médicaments sans ordonnance, supermarché FK"}},
    {"type":"Feature","geometry":{"type":"Point","coordinates":[-7.3060,62.0720]},"properties":{"name":"Handkeypssøla - Sørvágur (PE)","category":"Point de vente pharmaceutique","subcategory":"Handkeypssøla","chain":"","island":"Vágar","village":"Sørvágur","address":"Í Bygdini 3","phone":"+298 564085","website":"","hours":"","price_level":"€","description":"Médicaments sans ordonnance, proche aéroport"}},
    {"type":"Feature","geometry":{"type":"Point","coordinates":[-6.8600,62.0850]},"properties":{"name":"Handkeypssøla - Norðagøta (PE)","category":"Point de vente pharmaceutique","subcategory":"Handkeypssøla","chain":"","island":"Eysturoy","village":"Norðagøta","address":"Við Ánna 12","phone":"+298 564084","website":"","hours":"","price_level":"€","description":"Médicaments sans ordonnance"}},
    {"type":"Feature","geometry":{"type":"Point","coordinates":[-6.7600,62.1400]},"properties":{"name":"Handkeypssøla - Strendur","category":"Point de vente pharmaceutique","subcategory":"Handkeypssøla","chain":"","island":"Eysturoy","village":"Strendur","address":"Heygsvegur 4","phone":"+298 449139","website":"","hours":"","price_level":"€","description":"Médicaments sans ordonnance"}},
    {"type":"Feature","geometry":{"type":"Point","coordinates":[-6.8900,62.1150]},"properties":{"name":"Handkeypssøla - Skála","category":"Point de vente pharmaceutique","subcategory":"Handkeypssøla","chain":"","island":"Eysturoy","village":"Skála","address":"Skálavegur 213","phone":"+298 741412","website":"","hours":"","price_level":"€","description":"Médicaments sans ordonnance"}},
    {"type":"Feature","geometry":{"type":"Point","coordinates":[-6.6800,62.2000]},"properties":{"name":"Handkeypssøla - Leirvík (Effo)","category":"Point de vente pharmaceutique","subcategory":"Handkeypssøla","chain":"Effo","island":"Eysturoy","village":"Leirvík","address":"Høvdavegur 5","phone":"+298 443360","website":"","hours":"","price_level":"€","description":"Médicaments sans ordonnance, station-service"}},
    {"type":"Feature","geometry":{"type":"Point","coordinates":[-6.8700,62.2700]},"properties":{"name":"Handkeypssøla - Oyndarfjørður","category":"Point de vente pharmaceutique","subcategory":"Handkeypssøla","chain":"","island":"Eysturoy","village":"Oyndarfjørður","address":"Ovarivegur 2","phone":"+298 264259","website":"","hours":"","price_level":"€","description":"Médicaments sans ordonnance, village isolé"}},
    {"type":"Feature","geometry":{"type":"Point","coordinates":[-6.8100,62.2400]},"properties":{"name":"Handkeypssøla - Fuglafjørður (Haraldsen)","category":"Point de vente pharmaceutique","subcategory":"Handkeypssøla","chain":"","island":"Eysturoy","village":"Fuglafjørður","address":"Karvatoftir 2","phone":"+298 444005","website":"","hours":"","price_level":"€","description":"Médicaments sans ordonnance"}},
    {"type":"Feature","geometry":{"type":"Point","coordinates":[-6.8050,61.4740]},"properties":{"name":"Handkeypssøla - Vágur (Heimavirki)","category":"Point de vente pharmaceutique","subcategory":"Handkeypssøla","chain":"","island":"Suðuroy","village":"Vágur","address":"Vágsvegur 47","phone":"+298 373960","website":"","hours":"","price_level":"€","description":"Médicaments sans ordonnance"}},
    {"type":"Feature","geometry":{"type":"Point","coordinates":[-6.9500,61.6020]},"properties":{"name":"Handkeypssøla - Hvalba","category":"Point de vente pharmaceutique","subcategory":"Handkeypssøla","chain":"","island":"Suðuroy","village":"Hvalba","address":"Skálavegur 6","phone":"+298 375436","website":"","hours":"","price_level":"€","description":"Médicaments sans ordonnance"}},
    {"type":"Feature","geometry":{"type":"Point","coordinates":[-6.8200,61.4650]},"properties":{"name":"Handkeypssøla - Porkeri","category":"Point de vente pharmaceutique","subcategory":"Handkeypssøla","chain":"","island":"Suðuroy","village":"Porkeri","address":"Klovavegur 19","phone":"+298 373179","website":"","hours":"","price_level":"€","description":"Médicaments sans ordonnance, sud de Suðuroy"}},
    {"type":"Feature","geometry":{"type":"Point","coordinates":[-6.7742,62.0098]},"properties":{"name":"KOKS","category":"Restaurant","subcategory":"Gastronomique","chain":"","island":"Streymoy","village":"Tórshavn","address":"","phone":"","website":"koks.fo","hours":"","price_level":"€€€","description":"2 étoiles Michelin, cuisine féroïenne contemporaine, réservation obligatoire"}},
    {"type":"Feature","geometry":{"type":"Point","coordinates":[-6.7738,62.0095]},"properties":{"name":"PAZ Restaurant","category":"Restaurant","subcategory":"Gastronomique","chain":"","island":"Streymoy","village":"Tórshavn","address":"Centre-ville","phone":"","website":"","hours":"","price_level":"€€€","description":"Chef Poul Andrias Ziska, produits locaux premium"}},
    {"type":"Feature","geometry":{"type":"Point","coordinates":[-6.7735,62.0092]},"properties":{"name":"ROKS","category":"Restaurant","subcategory":"Fruits de mer","chain":"","island":"Streymoy","village":"Tórshavn","address":"Port","phone":"","website":"","hours":"","price_level":"€€€","description":"Sœur de KOKS, fruits de mer féroïens, ambiance décontractée"}},
    {"type":"Feature","geometry":{"type":"Point","coordinates":[-6.7720,62.0078]},"properties":{"name":"Ræst","category":"Restaurant","subcategory":"Traditionnel","chain":"","island":"Streymoy","village":"Tórshavn","address":"Gongin 8","phone":"+298 411430","website":"","hours":"Mer-Sam 18h-22h","price_level":"€€€","description":"Spécialiste cuisine fermentée, maison du 16e siècle"}},
    {"type":"Feature","geometry":{"type":"Point","coordinates":[-6.7718,62.0076]},"properties":{"name":"Barbara Fish House","category":"Restaurant","subcategory":"Fruits de mer","chain":"","island":"Streymoy","village":"Tórshavn","address":"Gongin 4-6","phone":"+298 331010","website":"","hours":"18h-00h (cuisine jusqu'à 22h)","price_level":"€€€","description":"Fruits de mer locaux, menu dégustation, vieux Tórshavn"}},
    {"type":"Feature","geometry":{"type":"Point","coordinates":[-6.7722,62.0080]},"properties":{"name":"Áarstova","category":"Restaurant","subcategory":"Traditionnel","chain":"","island":"Streymoy","village":"Tórshavn","address":"Vieux Tórshavn","phone":"","website":"","hours":"","price_level":"€€€","description":"Agneau braisé célèbre, maison historique, ambiance intime"}},
    {"type":"Feature","geometry":{"type":"Point","coordinates":[-6.7728,62.0085]},"properties":{"name":"Tarv","category":"Restaurant","subcategory":"Steakhouse","chain":"","island":"Streymoy","village":"Tórshavn","address":"Port","phone":"","website":"","hours":"","price_level":"€€€","description":"Steakhouse, vue sur mer, gin local"}},
    {"type":"Feature","geometry":{"type":"Point","coordinates":[-6.7732,62.0088]},"properties":{"name":"Katrina Christiansen","category":"Restaurant","subcategory":"Tapas","chain":"","island":"Streymoy","village":"Tórshavn","address":"Centre-ville","phone":"","website":"","hours":"","price_level":"€€","description":"Tapas féroïens, menu végétarien, réservation conseillée"}},
    {"type":"Feature","geometry":{"type":"Point","coordinates":[-6.7740,62.0092]},"properties":{"name":"Etika","category":"Restaurant","subcategory":"Sushi","chain":"","island":"Streymoy","village":"Tórshavn","address":"","phone":"","website":"","hours":"","price_level":"€€€","description":"Meilleur sushi, fruits de mer féroïens frais"}},
    {"type":"Feature","geometry":{"type":"Point","coordinates":[-6.7730,62.0090]},"properties":{"name":"Bitin","category":"Restaurant","subcategory":"Casual","chain":"","island":"Streymoy","village":"Tórshavn","address":"Niels Finsens gøta 12","phone":"","website":"","hours":"","price_level":"€€","description":"Smørrebrød nordiques, salades, options végétariennes"}},
    {"type":"Feature","geometry":{"type":"Point","coordinates":[-6.7731,62.0089]},"properties":{"name":"Suppugarðurin","category":"Restaurant","subcategory":"Ramen","chain":"","island":"Streymoy","village":"Tórshavn","address":"Arrière-cour de Bitin","phone":"","website":"","hours":"","price_level":"€€","description":"Ramen japonais traditionnel"}},
    {"type":"Feature","geometry":{"type":"Point","coordinates":[-6.7738,62.0095]},"properties":{"name":"hvonn","category":"Restaurant","subcategory":"Asiatique","chain":"","island":"Streymoy","village":"Tórshavn","address":"","phone":"","website":"","hours":"","price_level":"€€","description":"Cuisine asiatique, nems, nouilles, wok"}},
    {"type":"Feature","geometry":{"type":"Point","coordinates":[-6.7745,62.0100]},"properties":{"name":"Restaurant Ruts","category":"Restaurant","subcategory":"Végétarien","chain":"","island":"Streymoy","village":"Tórshavn","address":"","phone":"","website":"","hours":"","price_level":"€€","description":"Options végétariennes et vegan"}},
    {"type":"Feature","geometry":{"type":"Point","coordinates":[-6.7750,62.0105]},"properties":{"name":"Reyðleyk","category":"Restaurant","subcategory":"Fast food","chain":"","island":"Streymoy","village":"Tórshavn","address":"Près de Bónus","phone":"","website":"","hours":"","price_level":"€","description":"Takeaway burgers et pizza, vue sur Nólsoy"}},
    {"type":"Feature","geometry":{"type":"Point","coordinates":[-6.7714,62.0107]},"properties":{"name":"Burger King","category":"Restaurant","subcategory":"Fast food","chain":"Burger King","island":"Streymoy","village":"Tórshavn","address":"SMS Shopping Center","phone":"","website":"","hours":"","price_level":"€","description":"Un des deux seuls fast-food internationaux aux Féroé"}},
    {"type":"Feature","geometry":{"type":"Point","coordinates":[-6.7755,62.0098]},"properties":{"name":"City Burger","category":"Restaurant","subcategory":"Fast food","chain":"","island":"Streymoy","village":"Tórshavn","address":"","phone":"","website":"","hours":"","price_level":"€","description":"Fast food local"}},
    {"type":"Feature","geometry":{"type":"Point","coordinates":[-6.7725,62.0082]},"properties":{"name":"Irish Pub","category":"Restaurant","subcategory":"Pub","chain":"","island":"Streymoy","village":"Tórshavn","address":"Près du port","phone":"","website":"","hours":"","price_level":"€€","description":"Fish & chips, bières, ambiance pub"}},
    {"type":"Feature","geometry":{"type":"Point","coordinates":[-7.1450,62.0580]},"properties":{"name":"Fiskastykkið","category":"Restaurant","subcategory":"Fruits de mer","chain":"","island":"Vágar","village":"Sandavágur","address":"","phone":"","website":"","hours":"Fermé Dec-Jan, sur demande Nov/Fév","price_level":"€€€","description":"Poisson frais, cadre magnifique"}},
    {"type":"Feature","geometry":{"type":"Point","coordinates":[-7.1920,62.0520]},"properties":{"name":"Smiðjan","category":"Restaurant","subcategory":"Fast food","chain":"","island":"Vágar","village":"Miðvágur","address":"","phone":"","website":"","hours":"","price_level":"€","description":"Fast food"}},
    {"type":"Feature","geometry":{"type":"Point","coordinates":[-6.5895,62.2275]},"properties":{"name":"Fish & Chips Klaksvík","category":"Restaurant","subcategory":"Takeaway","chain":"","island":"Borðoy","village":"Klaksvík","address":"Parking FK","phone":"","website":"","hours":"","price_level":"€","description":"Excellent fish & chips, takeaway"}},
    {"type":"Feature","geometry":{"type":"Point","coordinates":[-6.9550,62.3280]},"properties":{"name":"Gjóbiti","category":"Restaurant","subcategory":"Local","chain":"","island":"Eysturoy","village":"Gjógv","address":"","phone":"","website":"","hours":"","price_level":"€€","description":"Restaurant local, produits frais"}},
    {"type":"Feature","geometry":{"type":"Point","coordinates":[-6.7680,62.0130]},"properties":{"name":"Anna og Óli - Heimablídni","category":"Restaurant","subcategory":"Heimablídni","chain":"","island":"Streymoy","village":"Tórshavn","address":"","phone":"","website":"","hours":"Sur réservation","price_level":"€€€","description":"Repas chez l'habitant, 5 plats, agneau de leur ferme"}},
    {"type":"Feature","geometry":{"type":"Point","coordinates":[-6.7685,62.0135]},"properties":{"name":"Durita og Fróði - Heimablídni","category":"Restaurant","subcategory":"Heimablídni","chain":"","island":"Streymoy","village":"Tórshavn","address":"","phone":"","website":"","hours":"Sur réservation","price_level":"€€€","description":"Tables d'hôtes, cuisine traditionnelle féroïenne"}},
    {"type":"Feature","geometry":{"type":"Point","coordinates":[-6.7680,62.0130]},"properties":{"name":"Effo - Tórshavn Gundadalur","category":"Station-service","subcategory":"Carburant","chain":"Effo","island":"Streymoy","village":"Tórshavn","address":"Gundadalur","phone":"","website":"effo.fo","hours":"24h (pompes)","price_level":"€","description":"Station verte/bleue, snacks, café, fast food"}},
    {"type":"Feature","geometry":{"type":"Point","coordinates":[-6.7714,62.0107]},"properties":{"name":"Magn - Tórshavn","category":"Station-service","subcategory":"Carburant","chain":"Magn","island":"Streymoy","village":"Tórshavn","address":"","phone":"","website":"magn.fo","hours":"24h (pompes)","price_level":"€","description":"Station rouge, snacks, fast food, épicerie"}},
    {"type":"Feature","geometry":{"type":"Point","coordinates":[-6.7690,62.0115]},"properties":{"name":"Effo - Tórshavn (2)","category":"Station-service","subcategory":"Carburant","chain":"Effo","island":"Streymoy","village":"Tórshavn","address":"","phone":"","website":"effo.fo","hours":"24h (pompes)","price_level":"€","description":"Station-service"}},
    {"type":"Feature","geometry":{"type":"Point","coordinates":[-6.9100,62.1100]},"properties":{"name":"Effo - Kollafjørður","category":"Station-service","subcategory":"Carburant","chain":"Effo","island":"Streymoy","village":"Kollafjørður","address":"","phone":"","website":"effo.fo","hours":"24h (pompes)","price_level":"€","description":"Station avec salle de repos, restauration"}},
    {"type":"Feature","geometry":{"type":"Point","coordinates":[-7.0700,62.1560]},"properties":{"name":"Magn - Vestmanna","category":"Station-service","subcategory":"Carburant","chain":"Magn","island":"Streymoy","village":"Vestmanna","address":"","phone":"","website":"magn.fo","hours":"24h (pompes)","price_level":"€","description":"Station-service avec épicerie"}},
    {"type":"Feature","geometry":{"type":"Point","coordinates":[-6.9300,62.0600]},"properties":{"name":"Magn - Sunda","category":"Station-service","subcategory":"Carburant","chain":"Magn","island":"Eysturoy","village":"Norðskáli","address":"","phone":"","website":"magn.fo","hours":"24h (pompes)","price_level":"€","description":"Station-service près du tunnel"}},
    {"type":"Feature","geometry":{"type":"Point","coordinates":[-6.5890,62.2270]},"properties":{"name":"Effo - Klaksvík","category":"Station-service","subcategory":"Carburant","chain":"Effo","island":"Borðoy","village":"Klaksvík","address":"","phone":"","website":"effo.fo","hours":"24h (pompes)","price_level":"€","description":"Station-service avec boutique"}},
    {"type":"Feature","geometry":{"type":"Point","coordinates":[-6.5900,62.2260]},"properties":{"name":"Magn - Klaksvík","category":"Station-service","subcategory":"Carburant","chain":"Magn","island":"Borðoy","village":"Klaksvík","address":"","phone":"","website":"magn.fo","hours":"24h (pompes)","price_level":"€","description":"Station-service"}},
    {"type":"Feature","geometry":{"type":"Point","coordinates":[-6.7200,62.1100]},"properties":{"name":"Effo - Runavík","category":"Station-service","subcategory":"Carburant","chain":"Effo","island":"Eysturoy","village":"Runavík","address":"","phone":"","website":"effo.fo","hours":"24h (pompes)","price_level":"€","description":"Station-service"}},
    {"type":"Feature","geometry":{"type":"Point","coordinates":[-6.7210,62.1090]},"properties":{"name":"Magn - Runavík","category":"Station-service","subcategory":"Carburant","chain":"Magn","island":"Eysturoy","village":"Runavík","address":"","phone":"","website":"magn.fo","hours":"24h (pompes)","price_level":"€","description":"Station-service"}},
    {"type":"Feature","geometry":{"type":"Point","coordinates":[-6.6800,62.2000]},"properties":{"name":"Effo - Leirvík","category":"Station-service","subcategory":"Carburant","chain":"Effo","island":"Eysturoy","village":"Leirvík","address":"Høvdavegur 5","phone":"","website":"effo.fo","hours":"24h (pompes)","price_level":"€","description":"Station-service"}},
    {"type":"Feature","geometry":{"type":"Point","coordinates":[-6.7600,62.1400]},"properties":{"name":"Effo - Strendur","category":"Station-service","subcategory":"Carburant","chain":"Effo","island":"Eysturoy","village":"Strendur","address":"","phone":"","website":"effo.fo","hours":"24h (pompes)","price_level":"€","description":"Station-service"}},
    {"type":"Feature","geometry":{"type":"Point","coordinates":[-6.8600,62.0850]},"properties":{"name":"Magn - Norðragøta","category":"Station-service","subcategory":"Carburant","chain":"Magn","island":"Eysturoy","village":"Norðagøta","address":"","phone":"","website":"magn.fo","hours":"24h (pompes)","price_level":"€","description":"Station-service"}},
    {"type":"Feature","geometry":{"type":"Point","coordinates":[-7.1920,62.0520]},"properties":{"name":"Magn - Miðvágur","category":"Station-service","subcategory":"Carburant","chain":"Magn","island":"Vágar","village":"Miðvágur","address":"Leitisvegur 21","phone":"+298 347444","website":"magn.fo","hours":"7h-23h (boutique)","price_level":"€","description":"Essence, glaces, snacks, fast food, café, épicerie"}},
    {"type":"Feature","geometry":{"type":"Point","coordinates":[-7.3060,62.0720]},"properties":{"name":"Effo - Sørvágur","category":"Station-service","subcategory":"Carburant","chain":"Effo","island":"Vágar","village":"Sørvágur","address":"","phone":"","website":"effo.fo","hours":"24h (pompes)","price_level":"€","description":"Proche aéroport, station avec repos"}},
    {"type":"Feature","geometry":{"type":"Point","coordinates":[-6.9200,61.8400]},"properties":{"name":"Effo - Sandur","category":"Station-service","subcategory":"Carburant","chain":"Effo","island":"Sandoy","village":"Sandur","address":"","phone":"","website":"effo.fo","hours":"24h (pompes)","price_level":"€","description":"Station-service"}},
    {"type":"Feature","geometry":{"type":"Point","coordinates":[-6.9210,61.8410]},"properties":{"name":"Magn - Sandur","category":"Station-service","subcategory":"Carburant","chain":"Magn","island":"Sandoy","village":"Sandur","address":"","phone":"","website":"magn.fo","hours":"24h (pompes)","price_level":"€","description":"Station-service"}},
    {"type":"Feature","geometry":{"type":"Point","coordinates":[-6.8120,61.5560]},"properties":{"name":"Effo - Tvøroyri","category":"Station-service","subcategory":"Carburant","chain":"Effo","island":"Suðuroy","village":"Tvøroyri","address":"","phone":"","website":"effo.fo","hours":"24h (pompes)","price_level":"€","description":"Station-service"}},
    {"type":"Feature","geometry":{"type":"Point","coordinates":[-6.8130,61.5550]},"properties":{"name":"Magn - Tvøroyri","category":"Station-service","subcategory":"Carburant","chain":"Magn","island":"Suðuroy","village":"Tvøroyri","address":"","phone":"","website":"magn.fo","hours":"24h (pompes)","price_level":"€","description":"Station-service"}},
    {"type":"Feature","geometry":{"type":"Point","coordinates":[-6.8050,61.4740]},"properties":{"name":"Effo - Vágur","category":"Station-service","subcategory":"Carburant","chain":"Effo","island":"Suðuroy","village":"Vágur","address":"","phone":"","website":"effo.fo","hours":"24h (pompes)","price_level":"€","description":"Station-service avec boutique et produits locaux"}},
    {"type":"Feature","geometry":{"type":"Point","coordinates":[-6.8060,61.4730]},"properties":{"name":"Magn - Vágur","category":"Station-service","subcategory":"Carburant","chain":"Magn","island":"Suðuroy","village":"Vágur","address":"","phone":"","website":"magn.fo","hours":"24h (pompes)","price_level":"€","description":"Station-service"}},
    {"type":"Feature","geometry":{"type":"Point","coordinates":[-6.9500,61.6020]},"properties":{"name":"Effo - Hvalba","category":"Station-service","subcategory":"Carburant","chain":"Effo","island":"Suðuroy","village":"Hvalba","address":"","phone":"","website":"effo.fo","hours":"24h (pompes)","price_level":"€","description":"Station-service"}},
    {"type":"Feature","geometry":{"type":"Point","coordinates":[-6.8400,61.5880]},"properties":{"name":"Magn - Trongisvágur","category":"Station-service","subcategory":"Carburant","chain":"Magn","island":"Suðuroy","village":"Trongisvágur","address":"","phone":"","website":"magn.fo","hours":"24h (pompes)","price_level":"€","description":"Station-service"}}
  ]
}
